"iata"	"airport"	"city"	"state"	"country"	"lat"	"long"
"00M"	"Thigpen "	"Bay Springs"	"MS"	"USA"	31.95376472	-89.23450472
"00R"	"Livingston Municipal"	"Livingston"	"TX"	"USA"	30.68586111	-95.01792778
"00V"	"Meadow Lake"	"Colorado Springs"	"CO"	"USA"	38.94574889	-104.5698933
"01G"	"Perry-Warsaw"	"Perry"	"NY"	"USA"	42.74134667	-78.05208056
"01J"	"Hilliard Airpark"	"Hilliard"	"FL"	"USA"	30.6880125	-81.90594389